[{"hc-group":"admin1","hc-middle-x":0.52,"hc-middle-y":0.47,"hc-key":"ir-5428","hc-a2":"NU","labelrank":20,"hasc":"-99","alt-name":"","woe-id":-99,"subregion":"","fips":"","postal-code":"","name":"","country":"Iran","type-en":"","region":"","longitude":55.3044,"woe-name":"","latitude":26.2642,"woe-label":"","type":"","FID":"IR.5428"},{"hc-group":"admin1","hc-middle-x":0.54,"hc-middle-y":0.37,"hc-key":"ir-hg","hc-a2":"HG","labelrank":4,"hasc":"IR.HG","alt-name":"Banader va Jazayer-e Bahr-e Oman|Ports and Islands of the Sea of Oman|Saheli","woe-id":2345776,"subregion":"","fips":"IR11","postal-code":"HG","name":"Hormozgan","country":"Iran","type-en":"Province","region":"","longitude":56.2505,"woe-name":"Hormozgan","latitude":27.6455,"woe-label":"Hormozgan, IR, Iran","type":"Ostan","FID":"IR.HG"},{"hc-group":"admin1","hc-middle-x":0.44,"hc-middle-y":0.48,"hc-key":"ir-bs","hc-a2":"BS","labelrank":6,"hasc":"IR.BS","alt-name":"Banader va Jazayer-e Khalij-e Fars|Bushire|Persian Gulf|Ports and Islands of the Persian Gulf","woe-id":2345781,"subregion":"","fips":"IR22","postal-code":"BS","name":"Bushehr","country":"Iran","type-en":"Province","region":"","longitude":51.4225,"woe-name":"Bushehr","latitude":28.8273,"woe-label":"Bushehr, IR, Iran","type":"Ostan","FID":"IR.BS"},{"hc-group":"admin1","hc-middle-x":0.5,"hc-middle-y":0.53,"hc-key":"ir-kb","hc-a2":"KB","labelrank":4,"hasc":"IR.KB","alt-name":"Bovir Ahmadi and Kohkiluyeh|Boyer-Ahmad and Koh-Giluye|Boyer Ahmad e Kohkiluyeh|Boyer Ahmadi-ye Sardir va Kohkiluyeh|Kohgil","woe-id":2345771,"subregion":"","fips":"IR05","postal-code":"KB","name":"Kohgiluyeh and Buyer Ahmad","country":"Iran","type-en":"Province","region":"","longitude":50.7947,"woe-name":"Kohgiluyeh and Buyer Ahmad","latitude":30.6977,"woe-label":"Kohgiluyeh va Buyer Ahmad, IR, Iran","type":"Ostan","FID":"IR.KB"},{"hc-group":"admin1","hc-middle-x":0.56,"hc-middle-y":0.56,"hc-key":"ir-fa","hc-a2":"FA","labelrank":4,"hasc":"IR.FA","alt-name":"","woe-id":2345772,"subregion":"","fips":"IR07","postal-code":"FA","name":"Fars","country":"Iran","type-en":"Province","region":"","longitude":53.0793,"woe-name":"Fars","latitude":29.4007,"woe-label":"Fars, IR, Iran","type":"Ostan","FID":"IR.FA"},{"hc-group":"admin1","hc-middle-x":0.5,"hc-middle-y":0.34,"hc-key":"ir-es","hc-a2":"ES","labelrank":6,"hasc":"IR.ES","alt-name":"Isfahan|Ispahan","woe-id":2345787,"subregion":"","fips":"IR28","postal-code":"ES","name":"Esfahan","country":"Iran","type-en":"Province","region":"","longitude":52.4195,"woe-name":"Esfahan","latitude":32.9837,"woe-label":"Esfahan, IR, Iran","type":"Ostan","FID":"IR.ES"},{"hc-group":"admin1","hc-middle-x":0.61,"hc-middle-y":0.62,"hc-key":"ir-sm","hc-a2":"SM","labelrank":6,"hasc":"IR.SM","alt-name":"","woe-id":2345784,"subregion":"","fips":"IR25","postal-code":"SM","name":"Semnan","country":"Iran","type-en":"Province","region":"","longitude":54.4381,"woe-name":"Semnan","latitude":35.4243,"woe-label":"Semnan, IR, Iran","type":"Ostan","FID":"IR.SM"},{"hc-group":"admin1","hc-middle-x":0.57,"hc-middle-y":0.52,"hc-key":"ir-go","hc-a2":"GO","labelrank":4,"hasc":"IR.GO","alt-name":"","woe-id":20070201,"subregion":"","fips":"IR37","postal-code":"GO","name":"Golestan","country":"Iran","type-en":"Province","region":"","longitude":55.0042,"woe-name":"Golestan","latitude":37.312,"woe-label":"Golestan, IR, Iran","type":"Ostan","FID":"IR.GO"},{"hc-group":"admin1","hc-middle-x":0.63,"hc-middle-y":0.6,"hc-key":"ir-mn","hc-a2":"MN","labelrank":4,"hasc":"IR.MN","alt-name":"","woe-id":2345780,"subregion":"","fips":"IR17","postal-code":"MN","name":"Mazandaran","country":"Iran","type-en":"Province","region":"","longitude":52.2123,"woe-name":"Mazandaran","latitude":36.231,"woe-label":"Mazandaran, IR, Iran","type":"Ostan","FID":"IR.MN"},{"hc-group":"admin1","hc-middle-x":0.31,"hc-middle-y":0.46,"hc-key":"ir-th","hc-a2":"TH","labelrank":7,"hasc":"IR.TH","alt-name":"Teheran|T?h?ran","woe-id":2345785,"subregion":"","fips":"IR26","postal-code":"TH","name":"Tehran","country":"Iran","type-en":"Province","region":"","longitude":51.6548,"woe-name":"Tehran","latitude":35.5146,"woe-label":"Tehran, IR, Iran","type":"Ostan","FID":"IR.TH"},{"hc-group":"admin1","hc-middle-x":0.38,"hc-middle-y":0.54,"hc-key":"ir-mk","hc-a2":"MK","labelrank":4,"hasc":"IR.MK","alt-name":"","woe-id":2345783,"subregion":"","fips":"IR34","postal-code":"MK","name":"Markazi","country":"Iran","type-en":"Province","region":"","longitude":49.964,"woe-name":"Markazi","latitude":34.5595,"woe-label":"Markazi, IR, Iran","type":"Ostan","FID":"IR.MK"},{"hc-group":"admin1","hc-middle-x":0.52,"hc-middle-y":0.5,"hc-key":"ir-ya","hc-a2":"YA","labelrank":6,"hasc":"IR.YA","alt-name":"","woe-id":2345790,"subregion":"","fips":"IR40","postal-code":"YA","name":"Yazd","country":"Iran","type-en":"Province","region":"","longitude":55.5242,"woe-name":"Yazd","latitude":32.7074,"woe-label":"Yazd, IR, Iran","type":"Ostan","FID":"IR.YA"},{"hc-group":"admin1","hc-middle-x":0.6,"hc-middle-y":0.48,"hc-key":"ir-cm","hc-a2":"CM","labelrank":4,"hasc":"IR.CM","alt-name":"Bakhtiari|Chaharmahal va Bakhtiyari|Charmahal-Bakhtiyari","woe-id":2345769,"subregion":"","fips":"IR03","postal-code":"CM","name":"Chahar Mahall and Bakhtiari","country":"Iran","type-en":"Province","region":"","longitude":50.5298,"woe-name":"Chahar Mahall and Bakhtiari","latitude":31.9975,"woe-label":"Chahar Mahall va Bakhtiari, IR, Iran","type":"Ostan","FID":"IR.CM"},{"hc-group":"admin1","hc-middle-x":0.48,"hc-middle-y":0.5,"hc-key":"ir-kz","hc-a2":"KZ","labelrank":4,"hasc":"IR.KZ","alt-name":"Khuzistan|Kouzistan","woe-id":2345778,"subregion":"","fips":"IR15","postal-code":"KZ","name":"Khuzestan","country":"Iran","type-en":"Province","region":"","longitude":48.7558,"woe-name":"Khuzestan","latitude":31.3484,"woe-label":"Khuzestan, IR, Iran","type":"Ostan","FID":"IR.KZ"},{"hc-group":"admin1","hc-middle-x":0.53,"hc-middle-y":0.49,"hc-key":"ir-lo","hc-a2":"LO","labelrank":4,"hasc":"IR.LO","alt-name":"","woe-id":2345782,"subregion":"","fips":"IR23","postal-code":"LO","name":"Lorestan","country":"Iran","type-en":"Province","region":"","longitude":48.4141,"woe-name":"Lorestan","latitude":33.5323,"woe-label":"Lorestan, IR, Iran","type":"Ostan","FID":"IR.LO"},{"hc-group":"admin1","hc-middle-x":0.37,"hc-middle-y":0.35,"hc-key":"ir-il","hc-a2":"IL","labelrank":7,"hasc":"IR.IL","alt-name":"Ilam and Poshtkuh","woe-id":2345775,"subregion":"","fips":"IR10","postal-code":"IL","name":"Ilam","country":"Iran","type-en":"Province","region":"","longitude":46.8116,"woe-name":"Ilam","latitude":33.2369,"woe-label":"Ilam, IR, Iran","type":"Ostan","FID":"IR.IL"},{"hc-group":"admin1","hc-middle-x":0.64,"hc-middle-y":0.54,"hc-key":"ir-ar","hc-a2":"AR","labelrank":7,"hasc":"IR.AR","alt-name":"Ardabil","woe-id":20070198,"subregion":"","fips":"IR32","postal-code":"AR","name":"Ardebil","country":"Iran","type-en":"Province","region":"","longitude":47.7241,"woe-name":"Ardebil","latitude":38.9113,"woe-label":"Ardabil, IR, Iran","type":"Ostan","FID":"IR.AR"},{"hc-group":"admin1","hc-middle-x":0.45,"hc-middle-y":0.55,"hc-key":"ir-qm","hc-a2":"QM","labelrank":7,"hasc":"IR.QM","alt-name":"","woe-id":20070199,"subregion":"","fips":"IR39","postal-code":"QM","name":"Qom","country":"Iran","type-en":"Province","region":"","longitude":50.978,"woe-name":"Qom","latitude":34.6662,"woe-label":"Qom, IR, Iran","type":"Ostan","FID":"IR.QM"},{"hc-group":"admin1","hc-middle-x":0.47,"hc-middle-y":0.5,"hc-key":"ir-hd","hc-a2":"HD","labelrank":7,"hasc":"IR.HD","alt-name":"Hamedan","woe-id":2345774,"subregion":"","fips":"IR09","postal-code":"HD","name":"Hamadan","country":"Iran","type-en":"Province","region":"","longitude":48.5738,"woe-name":"Hamadan","latitude":34.8342,"woe-label":"Hamadan, IR, Iran","type":"Ostan","FID":"IR.HD"},{"hc-group":"admin1","hc-middle-x":0.61,"hc-middle-y":0.46,"hc-key":"ir-za","hc-a2":"ZA","labelrank":7,"hasc":"IR.ZA","alt-name":"","woe-id":2345786,"subregion":"","fips":"IR36","postal-code":"ZA","name":"Zanjan","country":"Iran","type-en":"Province","region":"","longitude":48.2959,"woe-name":"Zanjan","latitude":36.3989,"woe-label":"Zanjan, IR, Iran","type":"Ostan","FID":"IR.ZA"},{"hc-group":"admin1","hc-middle-x":0.56,"hc-middle-y":0.59,"hc-key":"ir-qz","hc-a2":"QZ","labelrank":7,"hasc":"IR.QZ","alt-name":"","woe-id":20070200,"subregion":"","fips":"IR38","postal-code":"QZ","name":"Qazvin","country":"Iran","type-en":"Province","region":"","longitude":49.6996,"woe-name":"Qazvin","latitude":36.0552,"woe-label":"Qazvin, IR, Iran","type":"Ostan","FID":"IR.QZ"},{"hc-group":"admin1","hc-middle-x":0.2,"hc-middle-y":0.35,"hc-key":"ir-wa","hc-a2":"WA","labelrank":4,"hasc":"IR.WA","alt-name":"Azarbayjan-e Bakhtari|Azarbaijan-e Gharbi|West Azarbayejan|Azerba?djan e Gharbi","woe-id":2345767,"subregion":"","fips":"IR01","postal-code":"WA","name":"West Azarbaijan","country":"Iran","type-en":"Province","region":"","longitude":45.6734,"woe-name":"West Azarbaijan","latitude":36.6666,"woe-label":"Azarbayjan-e Gharbi, IR, Iran","type":"Ostan","FID":"IR.WA"},{"hc-group":"admin1","hc-middle-x":0.42,"hc-middle-y":0.48,"hc-key":"ir-ea","hc-a2":"EA","labelrank":4,"hasc":"IR.EA","alt-name":"Azarbayjan-e Khavari|Azarbaijan-e Sharghi|Azarbaijan-Sharqi|East Azarbayejan|Azerba?djan e Sharqi","woe-id":2345768,"subregion":"","fips":"IR01","postal-code":"EA","name":"East Azarbaijan","country":"Iran","type-en":"Province","region":"","longitude":46.7723,"woe-name":"East Azarbaijan","latitude":37.8501,"woe-label":"Azarbayjan-e Sharqi, IR, Iran","type":"Ostan","FID":"IR.EA"},{"hc-group":"admin1","hc-middle-x":0.45,"hc-middle-y":0.52,"hc-key":"ir-bk","hc-a2":"BK","labelrank":7,"hasc":"IR.BK","alt-name":"Bakhtaran|Kermanshahan","woe-id":2345777,"subregion":"","fips":"IR13","postal-code":"BK","name":"Kermanshah","country":"Iran","type-en":"Province","region":"","longitude":46.6893,"woe-name":"Kermanshah","latitude":34.2796,"woe-label":"Kermanshah, IR, Iran","type":"Ostan","FID":"IR.BK"},{"hc-group":"admin1","hc-middle-x":0.63,"hc-middle-y":0.76,"hc-key":"ir-gi","hc-a2":"GI","labelrank":4,"hasc":"IR.GI","alt-name":"","woe-id":2345773,"subregion":"","fips":"IR08","postal-code":"GI","name":"Gilan","country":"Iran","type-en":"Province","region":"","longitude":49.5162,"woe-name":"Gilan","latitude":37.0503,"woe-label":"Gilan, IR, Iran","type":"Ostan","FID":"IR.GI"},{"hc-group":"admin1","hc-middle-x":0.62,"hc-middle-y":0.49,"hc-key":"ir-kd","hc-a2":"KD","labelrank":4,"hasc":"IR.KD","alt-name":"Kurdistan","woe-id":2345779,"subregion":"","fips":"IR16","postal-code":"KD","name":"Kordestan","country":"Iran","type-en":"Province","region":"","longitude":46.8636,"woe-name":"Kordestan","latitude":35.5778,"woe-label":"Kordestan, IR, Iran","type":"Ostan","FID":"IR.KD"},{"hc-group":"admin1","hc-middle-x":0.52,"hc-middle-y":0.55,"hc-key":"ir-kj","hc-a2":"KJ","labelrank":4,"hasc":"IR.KJ","alt-name":"Khorasan-e Janubi","woe-id":56189825,"subregion":"","fips":"IR41","postal-code":"KJ","name":"South Khorasan","country":"Iran","type-en":"Province","region":"","longitude":59.489,"woe-name":"","latitude":32.4563,"woe-label":"","type":"Ostan","FID":"IR.KJ"},{"hc-group":"admin1","hc-middle-x":0.49,"hc-middle-y":0.45,"hc-key":"ir-kv","hc-a2":"KV","labelrank":4,"hasc":"IR.KV","alt-name":"Khorasan-e Razavi","woe-id":2345789,"subregion":"","fips":"IR42","postal-code":"KV","name":"Razavi Khorasan","country":"Iran","type-en":"Province","region":"","longitude":58.7976,"woe-name":"Razavi Khorasan","latitude":35.584,"woe-label":"Khorasan, IR, Iran","type":"Ostan","FID":"IR.KV"},{"hc-group":"admin1","hc-middle-x":0.41,"hc-middle-y":0.5,"hc-key":"ir-ks","hc-a2":"KS","labelrank":4,"hasc":"IR.KS","alt-name":"Khorasan-e Shemali","woe-id":-56189824,"subregion":"","fips":"IR43","postal-code":"KS","name":"North Khorasan","country":"Iran","type-en":"Province","region":"","longitude":57.0475,"woe-name":"","latitude":37.5789,"woe-label":"","type":"Ostan","FID":"IR.KS"},{"hc-group":"admin1","hc-middle-x":0.46,"hc-middle-y":0.65,"hc-key":"ir-sb","hc-a2":"SB","labelrank":4,"hasc":"IR.SB","alt-name":"Baluchestan va Sistan|Seistan and Baluchistan|Sistan e Baloutchistan","woe-id":2345770,"subregion":"","fips":"IR04","postal-code":"SB","name":"Sistan and Baluchestan","country":"Iran","type-en":"Province","region":"","longitude":61.0471,"woe-name":"Sistan and Baluchestan","latitude":27.4268,"woe-label":"Sistan va Baluchestan, IR, Iran","type":"Ostan","FID":"IR.SB"},{"hc-group":"admin1","hc-middle-x":0.6,"hc-middle-y":0.41,"hc-key":"ir-ke","hc-a2":"KE","labelrank":6,"hasc":"IR.KE","alt-name":"","woe-id":2345788,"subregion":"","fips":"IR29","postal-code":"KE","name":"Kerman","country":"Iran","type-en":"Province","region":"","longitude":56.9567,"woe-name":"Kerman","latitude":30.1234,"woe-label":"Kerman, IR, Iran","type":"Ostan","FID":"IR.KE"},{"hc-group":"admin1","hc-middle-x":0.55,"hc-middle-y":0.36,"hc-key":"ir-al","hc-a2":"AL","labelrank":7,"hasc":"IR.AL","alt-name":"","woe-id":-20070200,"subregion":"","fips":"IR26","postal-code":"AL","name":"Alborz","country":"Iran","type-en":"Province","region":"","longitude":50.7848,"woe-name":"","latitude":35.9651,"woe-label":"","type":"Ostan","FID":"IR.AL"}]
